[
  {
    "dataset": "flood_events",
    "id": 9,
    "name": "Banjir Teluk Betung Selatan",
    "longitude": 105.2607,
    "latitude": -5.4478,
    "url": "https://nominatim.openstreetmap.org/reverse?format=jsonv2&lat=-5.4478&lon=105.2607&zoom=16&addressdetails=1",
    "http_status": 200,
    "display_name": "Teluk Betung, Bandar Lampung, Lampung, Sumatera, 34223, Indonesia",
    "address": {
      "village": "Teluk Betung",
      "city": "Bandar Lampung",
      "state": "Lampung",
      "ISO3166-2-lvl4": "ID-LA",
      "region": "Sumatera",
      "ISO3166-2-lvl3": "ID-SM",
      "postcode": "34223",
      "country": "Indonesia",
      "country_code": "id"
    },
    "osm_type": "way",
    "osm_id": 824775266,
    "category": "highway",
    "type": "residential"
  },
  {
    "dataset": "flood_events",
    "id": 10,
    "name": "Genangan Way Halim",
    "longitude": 105.2869,
    "latitude": -5.3867,
    "url": "https://nominatim.openstreetmap.org/reverse?format=jsonv2&lat=-5.3867&lon=105.2869&zoom=16&addressdetails=1",
    "http_status": 200,
    "display_name": "Kalibalau Kencana, Bandar Lampung, Lampung, Sumatera, 35133, Indonesia",
    "address": {
      "village": "Kalibalau Kencana",
      "city": "Bandar Lampung",
      "state": "Lampung",
      "ISO3166-2-lvl4": "ID-LA",
      "region": "Sumatera",
      "ISO3166-2-lvl3": "ID-SM",
      "postcode": "35133",
      "country": "Indonesia",
      "country_code": "id"
    },
    "osm_type": "way",
    "osm_id": 840029467,
    "category": "highway",
    "type": "residential"
  },
  {
    "dataset": "flood_events",
    "id": 11,
    "name": "Banjir Korpri Sukarame",
    "longitude": 105.3045,
    "latitude": -5.3832,
    "url": "https://nominatim.openstreetmap.org/reverse?format=jsonv2&lat=-5.3832&lon=105.3045&zoom=16&addressdetails=1",
    "http_status": 200,
    "display_name": "Sukabumi, Bandar Lampung, Lampung, Sumatera, 35131, Indonesia",
    "address": {
      "village": "Sukabumi",
      "city": "Bandar Lampung",
      "state": "Lampung",
      "ISO3166-2-lvl4": "ID-LA",
      "region": "Sumatera",
      "ISO3166-2-lvl3": "ID-SM",
      "postcode": "35131",
      "country": "Indonesia",
      "country_code": "id"
    },
    "osm_type": "way",
    "osm_id": 654011156,
    "category": "highway",
    "type": "tertiary"
  },
  {
    "dataset": "flood_events",
    "id": 12,
    "name": "Genangan Panjang Utara",
    "longitude": 105.3278,
    "latitude": -5.4658,
    "url": "https://nominatim.openstreetmap.org/reverse?format=jsonv2&lat=-5.4658&lon=105.3278&zoom=16&addressdetails=1",
    "http_status": 200,
    "display_name": "Pidada, Lampung Selatan, Lampung, Sumatera, 35243, Indonesia",
    "address": {
      "village": "Pidada",
      "county": "Lampung Selatan",
      "state": "Lampung",
      "ISO3166-2-lvl4": "ID-LA",
      "region": "Sumatera",
      "ISO3166-2-lvl3": "ID-SM",
      "postcode": "35243",
      "country": "Indonesia",
      "country_code": "id"
    },
    "osm_type": "way",
    "osm_id": 654020736,
    "category": "highway",
    "type": "living_street"
  },
  {
    "dataset": "flood_events",
    "id": 13,
    "name": "Banjir Rajabasa Nunyai",
    "longitude": 105.2294,
    "latitude": -5.3716,
    "url": "https://nominatim.openstreetmap.org/reverse?format=jsonv2&lat=-5.3716&lon=105.2294&zoom=16&addressdetails=1",
    "http_status": 200,
    "display_name": "Labuhan Ratu, Bandar Lampung, Lampung, Sumatera, 35152, Indonesia",
    "address": {
      "village": "Labuhan Ratu",
      "city": "Bandar Lampung",
      "state": "Lampung",
      "ISO3166-2-lvl4": "ID-LA",
      "region": "Sumatera",
      "ISO3166-2-lvl3": "ID-SM",
      "postcode": "35152",
      "country": "Indonesia",
      "country_code": "id"
    },
    "osm_type": "way",
    "osm_id": 463409955,
    "category": "highway",
    "type": "residential"
  },
  {
    "dataset": "flood_events",
    "id": 14,
    "name": "Genangan Kedamaian",
    "longitude": 105.2828,
    "latitude": -5.4082,
    "url": "https://nominatim.openstreetmap.org/reverse?format=jsonv2&lat=-5.4082&lon=105.2828&zoom=16&addressdetails=1",
    "http_status": 200,
    "display_name": "Kedamaian, Bandar Lampung, Lampung, Sumatera, 35122, Indonesia",
    "address": {
      "village": "Kedamaian",
      "city": "Bandar Lampung",
      "state": "Lampung",
      "ISO3166-2-lvl4": "ID-LA",
      "region": "Sumatera",
      "ISO3166-2-lvl3": "ID-SM",
      "postcode": "35122",
      "country": "Indonesia",
      "country_code": "id"
    },
    "osm_type": "way",
    "osm_id": 1026296698,
    "category": "highway",
    "type": "residential"
  },
  {
    "dataset": "flood_events",
    "id": 15,
    "name": "Banjir Bumi Waras",
    "longitude": 105.2702,
    "latitude": -5.4352,
    "url": "https://nominatim.openstreetmap.org/reverse?format=jsonv2&lat=-5.4352&lon=105.2702&zoom=16&addressdetails=1",
    "http_status": 200,
    "display_name": "Gang Haji Rebo, Pecoh Raya, Bandar Lampung, Lampung, Sumatera, 35226, Indonesia",
    "address": {
      "road": "Gang Haji Rebo",
      "village": "Pecoh Raya",
      "city": "Bandar Lampung",
      "state": "Lampung",
      "ISO3166-2-lvl4": "ID-LA",
      "region": "Sumatera",
      "ISO3166-2-lvl3": "ID-SM",
      "postcode": "35226",
      "country": "Indonesia",
      "country_code": "id"
    },
    "osm_type": "way",
    "osm_id": 1181617016,
    "category": "highway",
    "type": "living_street"
  },
  {
    "dataset": "flood_events",
    "id": 16,
    "name": "Genangan Enggal",
    "longitude": 105.2639,
    "latitude": -5.4206,
    "url": "https://nominatim.openstreetmap.org/reverse?format=jsonv2&lat=-5.4206&lon=105.2639&zoom=16&addressdetails=1",
    "http_status": 200,
    "display_name": "Jalan Karel Satsuit Tubun, Rawa Laut, Bandar Lampung, Lampung, Sumatera, 35127, Indonesia",
    "address": {
      "road": "Jalan Karel Satsuit Tubun",
      "village": "Rawa Laut",
      "city": "Bandar Lampung",
      "state": "Lampung",
      "ISO3166-2-lvl4": "ID-LA",
      "region": "Sumatera",
      "ISO3166-2-lvl3": "ID-SM",
      "postcode": "35127",
      "country": "Indonesia",
      "country_code": "id"
    },
    "osm_type": "way",
    "osm_id": 654093926,
    "category": "highway",
    "type": "unclassified"
  },
  {
    "dataset": "flood_risk_points",
    "id": 13,
    "name": "Rawan Banjir Way Halim",
    "longitude": 105.2886,
    "latitude": -5.3897,
    "url": "https://nominatim.openstreetmap.org/reverse?format=jsonv2&lat=-5.3897&lon=105.2886&zoom=16&addressdetails=1",
    "http_status": 200,
    "display_name": "Jalan Endro Suratmin, Kalibalau Kencana, Bandar Lampung, Lampung, Sumatera, 35133, Indonesia",
    "address": {
      "road": "Jalan Endro Suratmin",
      "village": "Kalibalau Kencana",
      "city": "Bandar Lampung",
      "state": "Lampung",
      "ISO3166-2-lvl4": "ID-LA",
      "region": "Sumatera",
      "ISO3166-2-lvl3": "ID-SM",
      "postcode": "35133",
      "country": "Indonesia",
      "country_code": "id"
    },
    "osm_type": "way",
    "osm_id": 1234790011,
    "category": "highway",
    "type": "secondary"
  },
  {
    "dataset": "flood_risk_points",
    "id": 14,
    "name": "Rawan Banjir Teluk Betung Selatan",
    "longitude": 105.2608,
    "latitude": -5.4469,
    "url": "https://nominatim.openstreetmap.org/reverse?format=jsonv2&lat=-5.4469&lon=105.2608&zoom=16&addressdetails=1",
    "http_status": 200,
    "display_name": "Gunung Mas, Bandar Lampung, Lampung, Sumatera, 34223, Indonesia",
    "address": {
      "village": "Gunung Mas",
      "city": "Bandar Lampung",
      "state": "Lampung",
      "ISO3166-2-lvl4": "ID-LA",
      "region": "Sumatera",
      "ISO3166-2-lvl3": "ID-SM",
      "postcode": "34223",
      "country": "Indonesia",
      "country_code": "id"
    },
    "osm_type": "way",
    "osm_id": 824775270,
    "category": "highway",
    "type": "residential"
  },
  {
    "dataset": "flood_risk_points",
    "id": 15,
    "name": "Rawan Banjir Panjang Utara",
    "longitude": 105.3284,
    "latitude": -5.4661,
    "url": "https://nominatim.openstreetmap.org/reverse?format=jsonv2&lat=-5.4661&lon=105.3284&zoom=16&addressdetails=1",
    "http_status": 200,
    "display_name": "Pidada, Lampung Selatan, Lampung, Sumatera, 35243, Indonesia",
    "address": {
      "village": "Pidada",
      "county": "Lampung Selatan",
      "state": "Lampung",
      "ISO3166-2-lvl4": "ID-LA",
      "region": "Sumatera",
      "ISO3166-2-lvl3": "ID-SM",
      "postcode": "35243",
      "country": "Indonesia",
      "country_code": "id"
    },
    "osm_type": "way",
    "osm_id": 654020736,
    "category": "highway",
    "type": "living_street"
  },
  {
    "dataset": "flood_risk_points",
    "id": 16,
    "name": "Rawan Banjir Rajabasa Nunyai",
    "longitude": 105.2302,
    "latitude": -5.3722,
    "url": "https://nominatim.openstreetmap.org/reverse?format=jsonv2&lat=-5.3722&lon=105.2302&zoom=16&addressdetails=1",
    "http_status": 200,
    "display_name": "Labuhan Ratu, Bandar Lampung, Lampung, Sumatera, 35147, Indonesia",
    "address": {
      "village": "Labuhan Ratu",
      "city": "Bandar Lampung",
      "state": "Lampung",
      "ISO3166-2-lvl4": "ID-LA",
      "region": "Sumatera",
      "ISO3166-2-lvl3": "ID-SM",
      "postcode": "35147",
      "country": "Indonesia",
      "country_code": "id"
    },
    "osm_type": "way",
    "osm_id": 654010993,
    "category": "highway",
    "type": "residential"
  },
  {
    "dataset": "flood_risk_points",
    "id": 17,
    "name": "Rawan Banjir Korpri Sukarame",
    "longitude": 105.3052,
    "latitude": -5.3838,
    "url": "https://nominatim.openstreetmap.org/reverse?format=jsonv2&lat=-5.3838&lon=105.3052&zoom=16&addressdetails=1",
    "http_status": 200,
    "display_name": "Sukabumi, Bandar Lampung, Lampung, Sumatera, 35131, Indonesia",
    "address": {
      "village": "Sukabumi",
      "city": "Bandar Lampung",
      "state": "Lampung",
      "ISO3166-2-lvl4": "ID-LA",
      "region": "Sumatera",
      "ISO3166-2-lvl3": "ID-SM",
      "postcode": "35131",
      "country": "Indonesia",
      "country_code": "id"
    },
    "osm_type": "way",
    "osm_id": 654011156,
    "category": "highway",
    "type": "tertiary"
  },
  {
    "dataset": "flood_risk_points",
    "id": 18,
    "name": "Rawan Banjir Kedamaian",
    "longitude": 105.2816,
    "latitude": -5.4095,
    "url": "https://nominatim.openstreetmap.org/reverse?format=jsonv2&lat=-5.4095&lon=105.2816&zoom=16&addressdetails=1",
    "http_status": 200,
    "display_name": "Kedamaian, Bandar Lampung, Lampung, Sumatera, 35122, Indonesia",
    "address": {
      "village": "Kedamaian",
      "city": "Bandar Lampung",
      "state": "Lampung",
      "ISO3166-2-lvl4": "ID-LA",
      "region": "Sumatera",
      "ISO3166-2-lvl3": "ID-SM",
      "postcode": "35122",
      "country": "Indonesia",
      "country_code": "id"
    },
    "osm_type": "way",
    "osm_id": 654022457,
    "category": "highway",
    "type": "residential"
  },
  {
    "dataset": "flood_risk_points",
    "id": 19,
    "name": "Rawan Banjir Labuhan Ratu",
    "longitude": 105.2448,
    "latitude": -5.3756,
    "url": "https://nominatim.openstreetmap.org/reverse?format=jsonv2&lat=-5.3756&lon=105.2448&zoom=16&addressdetails=1",
    "http_status": 200,
    "display_name": "Jalan Zainal Abidin Pagar Alam, Pelita, Bandar Lampung, Lampung, Sumatera, 35148, Indonesia",
    "address": {
      "road": "Jalan Zainal Abidin Pagar Alam",
      "village": "Pelita",
      "city": "Bandar Lampung",
      "state": "Lampung",
      "ISO3166-2-lvl4": "ID-LA",
      "region": "Sumatera",
      "ISO3166-2-lvl3": "ID-SM",
      "postcode": "35148",
      "country": "Indonesia",
      "country_code": "id"
    },
    "osm_type": "way",
    "osm_id": 177685043,
    "category": "highway",
    "type": "trunk"
  },
  {
    "dataset": "flood_risk_points",
    "id": 20,
    "name": "Rawan Banjir Tanjung Karang Timur",
    "longitude": 105.2779,
    "latitude": -5.4163,
    "url": "https://nominatim.openstreetmap.org/reverse?format=jsonv2&lat=-5.4163&lon=105.2779&zoom=16&addressdetails=1",
    "http_status": 200,
    "display_name": "Tanjung Agung, Bandar Lampung, Lampung, Sumatera, 35122, Indonesia",
    "address": {
      "village": "Tanjung Agung",
      "city": "Bandar Lampung",
      "state": "Lampung",
      "ISO3166-2-lvl4": "ID-LA",
      "region": "Sumatera",
      "ISO3166-2-lvl3": "ID-SM",
      "postcode": "35122",
      "country": "Indonesia",
      "country_code": "id"
    },
    "osm_type": "way",
    "osm_id": 403956227,
    "category": "highway",
    "type": "residential"
  },
  {
    "dataset": "flood_risk_points",
    "id": 21,
    "name": "Rawan Banjir Bumi Waras",
    "longitude": 105.2701,
    "latitude": -5.4364,
    "url": "https://nominatim.openstreetmap.org/reverse?format=jsonv2&lat=-5.4364&lon=105.2701&zoom=16&addressdetails=1",
    "http_status": 200,
    "display_name": "Gang Bonsai, Pecoh Raya, Bandar Lampung, Lampung, Sumatera, 35211, Indonesia",
    "address": {
      "road": "Gang Bonsai",
      "village": "Pecoh Raya",
      "city": "Bandar Lampung",
      "state": "Lampung",
      "ISO3166-2-lvl4": "ID-LA",
      "region": "Sumatera",
      "ISO3166-2-lvl3": "ID-SM",
      "postcode": "35211",
      "country": "Indonesia",
      "country_code": "id"
    },
    "osm_type": "way",
    "osm_id": 405097808,
    "category": "highway",
    "type": "residential"
  },
  {
    "dataset": "flood_risk_points",
    "id": 22,
    "name": "Rawan Banjir Enggal",
    "longitude": 105.2597,
    "latitude": -5.4189,
    "url": "https://nominatim.openstreetmap.org/reverse?format=jsonv2&lat=-5.4189&lon=105.2597&zoom=16&addressdetails=1",
    "http_status": 200,
    "display_name": "Enggal, Bandar Lampung, Lampung, Sumatera, 35214, Indonesia",
    "address": {
      "village": "Enggal",
      "city": "Bandar Lampung",
      "state": "Lampung",
      "ISO3166-2-lvl4": "ID-LA",
      "region": "Sumatera",
      "ISO3166-2-lvl3": "ID-SM",
      "postcode": "35214",
      "country": "Indonesia",
      "country_code": "id"
    },
    "osm_type": "way",
    "osm_id": 154323489,
    "category": "highway",
    "type": "unclassified"
  },
  {
    "dataset": "flood_risk_points",
    "id": 23,
    "name": "Rawan Banjir Kemiling Permai",
    "longitude": 105.2149,
    "latitude": -5.397,
    "url": "https://nominatim.openstreetmap.org/reverse?format=jsonv2&lat=-5.397&lon=105.2149&zoom=16&addressdetails=1",
    "http_status": 200,
    "display_name": "Jalan Melati III, Peumahan Polda 2, Bandar Lampung, Lampung, Sumatera, 35150, Indonesia",
    "address": {
      "road": "Jalan Melati III",
      "village": "Peumahan Polda 2",
      "city": "Bandar Lampung",
      "state": "Lampung",
      "ISO3166-2-lvl4": "ID-LA",
      "region": "Sumatera",
      "ISO3166-2-lvl3": "ID-SM",
      "postcode": "35150",
      "country": "Indonesia",
      "country_code": "id"
    },
    "osm_type": "way",
    "osm_id": 654023458,
    "category": "highway",
    "type": "residential"
  },
  {
    "dataset": "flood_risk_points",
    "id": 24,
    "name": "Rawan Banjir Teluk Betung Timur",
    "longitude": 105.2787,
    "latitude": -5.4555,
    "url": "https://nominatim.openstreetmap.org/reverse?format=jsonv2&lat=-5.4555&lon=105.2787&zoom=16&addressdetails=1",
    "http_status": 200,
    "display_name": "Bumi Waras, Bandar Lampung, Lampung, Sumatera, 34223, Indonesia",
    "address": {
      "village": "Bumi Waras",
      "city": "Bandar Lampung",
      "state": "Lampung",
      "ISO3166-2-lvl4": "ID-LA",
      "region": "Sumatera",
      "ISO3166-2-lvl3": "ID-SM",
      "postcode": "34223",
      "country": "Indonesia",
      "country_code": "id"
    },
    "osm_type": "node",
    "osm_id": 1308688426,
    "category": "place",
    "type": "village"
  },
  {
    "dataset": "evacuation_points",
    "id": 11,
    "name": "Masjid Al-Furqon Lungsir",
    "longitude": 105.2635,
    "latitude": -5.423,
    "url": "https://nominatim.openstreetmap.org/reverse?format=jsonv2&lat=-5.423&lon=105.2635&zoom=16&addressdetails=1",
    "http_status": 200,
    "display_name": "Pahoman, Bandar Lampung, Lampung, Sumatera, 35118, Indonesia",
    "address": {
      "village": "Pahoman",
      "city": "Bandar Lampung",
      "state": "Lampung",
      "ISO3166-2-lvl4": "ID-LA",
      "region": "Sumatera",
      "ISO3166-2-lvl3": "ID-SM",
      "postcode": "35118",
      "country": "Indonesia",
      "country_code": "id"
    },
    "osm_type": "way",
    "osm_id": 403954254,
    "category": "highway",
    "type": "residential"
  },
  {
    "dataset": "evacuation_points",
    "id": 12,
    "name": "GOR Saburai",
    "longitude": 105.2598,
    "latitude": -5.4218,
    "url": "https://nominatim.openstreetmap.org/reverse?format=jsonv2&lat=-5.4218&lon=105.2598&zoom=16&addressdetails=1",
    "http_status": 200,
    "display_name": "Enggal, Bandar Lampung, Lampung, Sumatera, 35214, Indonesia",
    "address": {
      "village": "Enggal",
      "city": "Bandar Lampung",
      "state": "Lampung",
      "ISO3166-2-lvl4": "ID-LA",
      "region": "Sumatera",
      "ISO3166-2-lvl3": "ID-SM",
      "postcode": "35214",
      "country": "Indonesia",
      "country_code": "id"
    },
    "osm_type": "way",
    "osm_id": 154323489,
    "category": "highway",
    "type": "unclassified"
  },
  {
    "dataset": "evacuation_points",
    "id": 13,
    "name": "Kantor Kecamatan Teluk Betung Selatan",
    "longitude": 105.2591,
    "latitude": -5.4485,
    "url": "https://nominatim.openstreetmap.org/reverse?format=jsonv2&lat=-5.4485&lon=105.2591&zoom=16&addressdetails=1",
    "http_status": 200,
    "display_name": "Teluk Betung, Bandar Lampung, Lampung, Sumatera, 35223, Indonesia",
    "address": {
      "village": "Teluk Betung",
      "city": "Bandar Lampung",
      "state": "Lampung",
      "ISO3166-2-lvl4": "ID-LA",
      "region": "Sumatera",
      "ISO3166-2-lvl3": "ID-SM",
      "postcode": "35223",
      "country": "Indonesia",
      "country_code": "id"
    },
    "osm_type": "way",
    "osm_id": 404897964,
    "category": "highway",
    "type": "residential"
  },
  {
    "dataset": "evacuation_points",
    "id": 14,
    "name": "Aula Kecamatan Panjang",
    "longitude": 105.3314,
    "latitude": -5.4682,
    "url": "https://nominatim.openstreetmap.org/reverse?format=jsonv2&lat=-5.4682&lon=105.3314&zoom=16&addressdetails=1",
    "http_status": 200,
    "display_name": "Pidada, Lampung Selatan, Lampung, Sumatera, 35243, Indonesia",
    "address": {
      "village": "Pidada",
      "county": "Lampung Selatan",
      "state": "Lampung",
      "ISO3166-2-lvl4": "ID-LA",
      "region": "Sumatera",
      "ISO3166-2-lvl3": "ID-SM",
      "postcode": "35243",
      "country": "Indonesia",
      "country_code": "id"
    },
    "osm_type": "way",
    "osm_id": 654020736,
    "category": "highway",
    "type": "living_street"
  },
  {
    "dataset": "evacuation_points",
    "id": 15,
    "name": "Puskesmas Sukarame",
    "longitude": 105.3025,
    "latitude": -5.3775,
    "url": "https://nominatim.openstreetmap.org/reverse?format=jsonv2&lat=-5.3775&lon=105.3025&zoom=16&addressdetails=1",
    "http_status": 200,
    "display_name": "Sukabumi Indah, Bandar Lampung, Lampung, Sumatera, 35131, Indonesia",
    "address": {
      "village": "Sukabumi Indah",
      "city": "Bandar Lampung",
      "state": "Lampung",
      "ISO3166-2-lvl4": "ID-LA",
      "region": "Sumatera",
      "ISO3166-2-lvl3": "ID-SM",
      "postcode": "35131",
      "country": "Indonesia",
      "country_code": "id"
    },
    "osm_type": "way",
    "osm_id": 654117238,
    "category": "highway",
    "type": "residential"
  },
  {
    "dataset": "evacuation_points",
    "id": 16,
    "name": "SDN Simulasi Way Halim",
    "longitude": 105.2878,
    "latitude": -5.389,
    "url": "https://nominatim.openstreetmap.org/reverse?format=jsonv2&lat=-5.389&lon=105.2878&zoom=16&addressdetails=1",
    "http_status": 200,
    "display_name": "Jalan Bypass Sukarno Hatta, Kalibalau Kencana, Bandar Lampung, Lampung, Sumatera, 35133, Indonesia",
    "address": {
      "road": "Jalan Bypass Sukarno Hatta",
      "village": "Kalibalau Kencana",
      "city": "Bandar Lampung",
      "state": "Lampung",
      "ISO3166-2-lvl4": "ID-LA",
      "region": "Sumatera",
      "ISO3166-2-lvl3": "ID-SM",
      "postcode": "35133",
      "country": "Indonesia",
      "country_code": "id"
    },
    "osm_type": "way",
    "osm_id": 53547306,
    "category": "highway",
    "type": "trunk"
  },
  {
    "dataset": "evacuation_points",
    "id": 17,
    "name": "Lapangan Enggal",
    "longitude": 105.2593,
    "latitude": -5.4175,
    "url": "https://nominatim.openstreetmap.org/reverse?format=jsonv2&lat=-5.4175&lon=105.2593&zoom=16&addressdetails=1",
    "http_status": 200,
    "display_name": "Jalan Tulang Bawang, Enggal, Bandar Lampung, Lampung, Sumatera, 35127, Indonesia",
    "address": {
      "road": "Jalan Tulang Bawang",
      "village": "Enggal",
      "city": "Bandar Lampung",
      "state": "Lampung",
      "ISO3166-2-lvl4": "ID-LA",
      "region": "Sumatera",
      "ISO3166-2-lvl3": "ID-SM",
      "postcode": "35127",
      "country": "Indonesia",
      "country_code": "id"
    },
    "osm_type": "way",
    "osm_id": 154323488,
    "category": "highway",
    "type": "tertiary"
  },
  {
    "dataset": "evacuation_points",
    "id": 18,
    "name": "Balai Warga Rajabasa Nunyai",
    "longitude": 105.2299,
    "latitude": -5.371,
    "url": "https://nominatim.openstreetmap.org/reverse?format=jsonv2&lat=-5.371&lon=105.2299&zoom=16&addressdetails=1",
    "http_status": 200,
    "display_name": "Labuhan Ratu, Bandar Lampung, Lampung, Sumatera, 35147, Indonesia",
    "address": {
      "village": "Labuhan Ratu",
      "city": "Bandar Lampung",
      "state": "Lampung",
      "ISO3166-2-lvl4": "ID-LA",
      "region": "Sumatera",
      "ISO3166-2-lvl3": "ID-SM",
      "postcode": "35147",
      "country": "Indonesia",
      "country_code": "id"
    },
    "osm_type": "way",
    "osm_id": 463409951,
    "category": "highway",
    "type": "residential"
  },
  {
    "dataset": "evacuation_points",
    "id": 19,
    "name": "Masjid Simulasi Kemiling",
    "longitude": 105.2157,
    "latitude": -5.3971,
    "url": "https://nominatim.openstreetmap.org/reverse?format=jsonv2&lat=-5.3971&lon=105.2157&zoom=16&addressdetails=1",
    "http_status": 200,
    "display_name": "Peumahan Polda 2, Bandar Lampung, Lampung, Sumatera, 35150, Indonesia",
    "address": {
      "village": "Peumahan Polda 2",
      "city": "Bandar Lampung",
      "state": "Lampung",
      "ISO3166-2-lvl4": "ID-LA",
      "region": "Sumatera",
      "ISO3166-2-lvl3": "ID-SM",
      "postcode": "35150",
      "country": "Indonesia",
      "country_code": "id"
    },
    "osm_type": "way",
    "osm_id": 654023439,
    "category": "highway",
    "type": "residential"
  },
  {
    "dataset": "evacuation_points",
    "id": 20,
    "name": "Balai Warga Kedamaian",
    "longitude": 105.2815,
    "latitude": -5.41,
    "url": "https://nominatim.openstreetmap.org/reverse?format=jsonv2&lat=-5.41&lon=105.2815&zoom=16&addressdetails=1",
    "http_status": 200,
    "display_name": "Kedamaian, Bandar Lampung, Lampung, Sumatera, 35122, Indonesia",
    "address": {
      "village": "Kedamaian",
      "city": "Bandar Lampung",
      "state": "Lampung",
      "ISO3166-2-lvl4": "ID-LA",
      "region": "Sumatera",
      "ISO3166-2-lvl3": "ID-SM",
      "postcode": "35122",
      "country": "Indonesia",
      "country_code": "id"
    },
    "osm_type": "way",
    "osm_id": 403978925,
    "category": "highway",
    "type": "residential"
  },
  {
    "dataset": "heavy_equipment_posts",
    "id": 7,
    "name": "Pos Alat Berat Panjang",
    "longitude": 105.3262,
    "latitude": -5.4669,
    "url": "https://nominatim.openstreetmap.org/reverse?format=jsonv2&lat=-5.4669&lon=105.3262&zoom=16&addressdetails=1",
    "http_status": 200,
    "display_name": "Ketapang, Bandar Lampung, Lampung, Sumatera, 35243, Indonesia",
    "address": {
      "village": "Ketapang",
      "city": "Bandar Lampung",
      "state": "Lampung",
      "ISO3166-2-lvl4": "ID-LA",
      "region": "Sumatera",
      "ISO3166-2-lvl3": "ID-SM",
      "postcode": "35243",
      "country": "Indonesia",
      "country_code": "id"
    },
    "osm_type": "way",
    "osm_id": 654020729,
    "category": "highway",
    "type": "living_street"
  },
  {
    "dataset": "heavy_equipment_posts",
    "id": 8,
    "name": "Pos Alat Berat Teluk Betung",
    "longitude": 105.259,
    "latitude": -5.4442,
    "url": "https://nominatim.openstreetmap.org/reverse?format=jsonv2&lat=-5.4442&lon=105.259&zoom=16&addressdetails=1",
    "http_status": 200,
    "display_name": "Gang Beringin 2, Kupang Kota, Bandar Lampung, Lampung, Sumatera, 34223, Indonesia",
    "address": {
      "road": "Gang Beringin 2",
      "village": "Kupang Kota",
      "city": "Bandar Lampung",
      "state": "Lampung",
      "ISO3166-2-lvl4": "ID-LA",
      "region": "Sumatera",
      "ISO3166-2-lvl3": "ID-SM",
      "postcode": "34223",
      "country": "Indonesia",
      "country_code": "id"
    },
    "osm_type": "way",
    "osm_id": 1377981643,
    "category": "highway",
    "type": "residential"
  },
  {
    "dataset": "heavy_equipment_posts",
    "id": 9,
    "name": "Pos Alat Berat Rajabasa",
    "longitude": 105.229,
    "latitude": -5.3729,
    "url": "https://nominatim.openstreetmap.org/reverse?format=jsonv2&lat=-5.3729&lon=105.229&zoom=16&addressdetails=1",
    "http_status": 200,
    "display_name": "Labuhan Ratu, Bandar Lampung, Lampung, Sumatera, 35152, Indonesia",
    "address": {
      "village": "Labuhan Ratu",
      "city": "Bandar Lampung",
      "state": "Lampung",
      "ISO3166-2-lvl4": "ID-LA",
      "region": "Sumatera",
      "ISO3166-2-lvl3": "ID-SM",
      "postcode": "35152",
      "country": "Indonesia",
      "country_code": "id"
    },
    "osm_type": "way",
    "osm_id": 463409935,
    "category": "highway",
    "type": "residential"
  },
  {
    "dataset": "heavy_equipment_posts",
    "id": 10,
    "name": "Pos Alat Berat Way Halim",
    "longitude": 105.2896,
    "latitude": -5.3912,
    "url": "https://nominatim.openstreetmap.org/reverse?format=jsonv2&lat=-5.3912&lon=105.2896&zoom=16&addressdetails=1",
    "http_status": 200,
    "display_name": "Sukabumi Indah, Bandar Lampung, Lampung, Sumatera, 35133, Indonesia",
    "address": {
      "village": "Sukabumi Indah",
      "city": "Bandar Lampung",
      "state": "Lampung",
      "ISO3166-2-lvl4": "ID-LA",
      "region": "Sumatera",
      "ISO3166-2-lvl3": "ID-SM",
      "postcode": "35133",
      "country": "Indonesia",
      "country_code": "id"
    },
    "osm_type": "way",
    "osm_id": 987352635,
    "category": "highway",
    "type": "residential"
  },
  {
    "dataset": "heavy_equipment_posts",
    "id": 11,
    "name": "Pos Alat Berat Sukarame",
    "longitude": 105.3068,
    "latitude": -5.3812,
    "url": "https://nominatim.openstreetmap.org/reverse?format=jsonv2&lat=-5.3812&lon=105.3068&zoom=16&addressdetails=1",
    "http_status": 200,
    "display_name": "Sukabumi, Bandar Lampung, Lampung, Sumatera, 35131, Indonesia",
    "address": {
      "village": "Sukabumi",
      "city": "Bandar Lampung",
      "state": "Lampung",
      "ISO3166-2-lvl4": "ID-LA",
      "region": "Sumatera",
      "ISO3166-2-lvl3": "ID-SM",
      "postcode": "35131",
      "country": "Indonesia",
      "country_code": "id"
    },
    "osm_type": "way",
    "osm_id": 654011157,
    "category": "highway",
    "type": "tertiary"
  },
  {
    "dataset": "heavy_equipment_posts",
    "id": 12,
    "name": "Pos Alat Berat Kemiling",
    "longitude": 105.214,
    "latitude": -5.3965,
    "url": "https://nominatim.openstreetmap.org/reverse?format=jsonv2&lat=-5.3965&lon=105.214&zoom=16&addressdetails=1",
    "http_status": 200,
    "display_name": "Jalan Melati III, Peumahan Polda 2, Bandar Lampung, Lampung, Sumatera, 35150, Indonesia",
    "address": {
      "road": "Jalan Melati III",
      "village": "Peumahan Polda 2",
      "city": "Bandar Lampung",
      "state": "Lampung",
      "ISO3166-2-lvl4": "ID-LA",
      "region": "Sumatera",
      "ISO3166-2-lvl3": "ID-SM",
      "postcode": "35150",
      "country": "Indonesia",
      "country_code": "id"
    },
    "osm_type": "way",
    "osm_id": 654023458,
    "category": "highway",
    "type": "residential"
  }
]